[
  {
    "address": "33 Connaught Dr NW, Calgary, AB T2K 1V9, Canada",
    "quadrant": "calgary-nw",
    "lat": 51.0847956,
    "lng": -114.0931031,
    "last_updated": "2020-12-28T10:31:46.489755"
  },
  {
    "address": "4908 40 Ave NW, Calgary, AB T3A 0X2, Canada",
    "quadrant": "calgary-nw",
    "lat": 51.088538,
    "lng": -114.156502,
    "last_updated": "2020-12-28T10:31:46.489755"
  },
  {
    "address": "71 Hawkhill Way NW, Calgary, AB T3G 3A3, Canada",
    "quadrant": "calgary-nw",
    "lat": 51.12777130000001,
    "lng": -114.1615219,
    "last_updated": "2020-12-28T10:31:46.489755"
  },
  {
    "address": "3723 2 St NW, Calgary, AB T2K 0Y5, Canada",
    "quadrant": "calgary-nw",
    "lat": 51.0858295,
    "lng": -114.0670063,
    "last_updated": "2020-12-28T10:31:46.489755"
  },
  {
    "address": "4507 70 St NW, Calgary, AB T3B 2K7, Canada",
    "quadrant": "calgary-nw",
    "lat": 51.091732,
    "lng": -114.1935949,
    "last_updated": "2020-12-28T10:31:46.489755"
  },
  {
    "address": "37 Evansglen Mews NW, Calgary, AB T3P 0B1, Canada",
    "quadrant": "calgary-nw",
    "lat": 51.1789143,
    "lng": -114.1029903,
    "last_updated": "2020-12-28T10:31:46.489755"
  },
  {
    "address": "119 Hidden Hills Way NW, Calgary, AB T3A 5X9, Canada",
    "quadrant": "calgary-nw",
    "lat": 51.1479131,
    "lng": -114.1310967,
    "last_updated": "2020-12-28T10:31:46.489755"
  },
  {
    "address": "120 Macewan Ridge Close NW, Calgary, AB T3K 3J4, Canada",
    "quadrant": "calgary-nw",
    "lat": 51.1423073,
    "lng": -114.1139924,
    "last_updated": "2020-12-28T10:31:46.489755"
  },
  {
    "address": "5608 Dalhousie Dr NW, Calgary, AB T3A 1P9, Canada",
    "quadrant": "calgary-nw",
    "lat": 51.110978,
    "lng": -114.166571,
    "last_updated": "2020-12-28T10:31:46.489755"
  },
  {
    "address": "233 Carringvue Manor NW, Calgary, AB T3P 0B1, Canada",
    "quadrant": "calgary-nw",
    "lat": 51.1826231,
    "lng": -114.0827315,
    "last_updated": "2020-12-28T10:31:46.489755"
  },
  {
    "address": "7 Scandia Point NW, Calgary, AB T3L 1T6, Canada",
    "quadrant": "calgary-nw",
    "lat": 51.1113975,
    "lng": -114.2189412,
    "last_updated": "2020-12-28T10:31:46.489755"
  },
  {
    "address": "1516 20a St NW, Calgary, AB T2N 2L5, Canada",
    "quadrant": "calgary-nw",
    "lat": 51.0657417,
    "lng": -114.1089791,
    "last_updated": "2020-12-28T10:31:46.489755"
  },
  {
    "address": "232 11 St NW, Calgary, AB T2N 1X1, Canada",
    "quadrant": "calgary-nw",
    "lat": 51.0538529,
    "lng": -114.088384,
    "last_updated": "2020-12-28T10:31:46.489755"
  },
  {
    "address": "157 Evansbrooke Way NW, Calgary, AB T3P 1G6, Canada",
    "quadrant": "calgary-nw",
    "lat": 51.1645767,
    "lng": -114.1243608,
    "last_updated": "2020-12-28T10:31:46.489755"
  },
  {
    "address": "266 Dalhurst Way NW, Calgary, AB T3A 1P5, Canada",
    "quadrant": "calgary-nw",
    "lat": 51.1109819,
    "lng": -114.1547014,
    "last_updated": "2020-12-28T10:31:46.489755"
  },
  {
    "address": "3 Baker Crescent NW, Calgary, AB T2L 1R3, Canada",
    "quadrant": "calgary-nw",
    "lat": 51.0924582,
    "lng": -114.1267563,
    "last_updated": "2020-12-28T10:31:46.489755"
  },
  {
    "address": "123 Ranchridge Ct NW, Calgary, AB T3G 1W4, Canada",
    "quadrant": "calgary-nw",
    "lat": 51.121553,
    "lng": -114.187094,
    "last_updated": "2020-12-28T10:31:46.489755"
  },
  {
    "address": "107 Panora Square NW, Calgary, AB, Canada",
    "quadrant": "calgary-nw",
    "lat": 51.1689472,
    "lng": -114.0937703,
    "last_updated": "2020-12-28T10:31:46.489755"
  },
  {
    "address": "43 Hawkmount Heights NW, Calgary, AB T3G 3S5, Canada",
    "quadrant": "calgary-nw",
    "lat": 51.1334955,
    "lng": -114.1759338,
    "last_updated": "2020-12-28T10:31:46.489755"
  },
  {
    "address": "228 Kincora Point NW, Calgary, AB T3R 0A5, Canada",
    "quadrant": "calgary-nw",
    "lat": 51.1596091,
    "lng": -114.1382599,
    "last_updated": "2020-12-28T10:31:46.489755"
  },
  {
    "address": "307 Valley Brook Cir NW, Calgary, AB T3B 5S4, Canada",
    "quadrant": "calgary-nw",
    "lat": 51.0918256,
    "lng": -114.2383846,
    "last_updated": "2020-12-28T10:31:46.489755"
  },
  {
    "address": "16 Dalrymple Green NW, Calgary, AB T3A 1Y2, Canada",
    "quadrant": "calgary-nw",
    "lat": 51.111345,
    "lng": -114.164693,
    "last_updated": "2020-12-28T10:31:46.489755"
  },
  {
    "address": "826 22 Ave NW, Calgary, AB T2M 1P2, Canada",
    "quadrant": "calgary-nw",
    "lat": 51.0725315,
    "lng": -114.0804932,
    "last_updated": "2020-12-28T10:31:46.489755"
  },
  {
    "address": "4215 Voyageur Dr NW, Calgary, AB T3A 0J3, Canada",
    "quadrant": "calgary-nw",
    "lat": 51.08932120000001,
    "lng": -114.154719,
    "last_updated": "2020-12-28T10:31:46.489755"
  },
  {
    "address": "826 22 Ave NW, Calgary, AB T2M 1P2, Canada",
    "quadrant": "calgary-nw",
    "lat": 51.0725315,
    "lng": -114.0804932,
    "last_updated": "2020-12-28T10:31:46.489755"
  },
  {
    "address": "111 Arbour Stone Crescent NW, Calgary, AB T3G 5A1, Canada",
    "quadrant": "calgary-nw",
    "lat": 51.1356329,
    "lng": -114.2173357,
    "last_updated": "2020-12-28T10:31:46.489755"
  },
  {
    "address": "377 Evansborough Way NW, Calgary, AB T3P 0M2, Canada",
    "quadrant": "calgary-nw",
    "lat": 51.1815771,
    "lng": -114.1261561,
    "last_updated": "2020-12-28T10:31:46.489755"
  },
  {
    "address": "12 Evansford Rd NW, Calgary, AB T3P 1E9, Canada",
    "quadrant": "calgary-nw",
    "lat": 51.1672822,
    "lng": -114.1110962,
    "last_updated": "2020-12-28T10:31:46.489755"
  },
  {
    "address": "8312 Edgevalley Dr NW, Calgary, AB T3A 4X1, Canada",
    "quadrant": "calgary-nw",
    "lat": 51.1296194,
    "lng": -114.1465646,
    "last_updated": "2020-12-28T10:31:46.489755"
  },
  {
    "address": "65 Sage Valley Rd NW, Calgary, AB T3R 0J4, Canada",
    "quadrant": "calgary-nw",
    "lat": 51.1771865,
    "lng": -114.1544027,
    "last_updated": "2020-12-28T10:31:46.489755"
  },
  {
    "address": "281 Carringsby Landing NW, Calgary, AB T3P 1M1, Canada",
    "quadrant": "calgary-nw",
    "lat": 51.17880950000001,
    "lng": -114.0870962,
    "last_updated": "2020-12-28T10:31:46.489755"
  },
  {
    "address": "140 Hidden Hills Pl NW, Calgary, AB T3A 6E2, Canada",
    "quadrant": "calgary-nw",
    "lat": 51.14990950000001,
    "lng": -114.130639,
    "last_updated": "2020-12-28T10:31:46.489755"
  },
  {
    "address": "207 Edgepark Blvd NW, Calgary, AB T3A 4E4, Canada",
    "quadrant": "calgary-nw",
    "lat": 51.1304783,
    "lng": -114.1580684,
    "last_updated": "2020-12-28T10:31:46.489755"
  },
  {
    "address": "82 Hawkwood Rd NW, Calgary, AB T3G 2J1, Canada",
    "quadrant": "calgary-nw",
    "lat": 51.1283213,
    "lng": -114.187768,
    "last_updated": "2020-12-28T10:31:46.489755"
  },
  {
    "address": "4348 70 St NW, Calgary, AB T3B 2K5, Canada",
    "quadrant": "calgary-nw",
    "lat": 51.091123,
    "lng": -114.191975,
    "last_updated": "2020-12-28T10:31:46.489755"
  },
  {
    "address": "83 Willow Creek Crossing, Calgary, AB T3R 0K3, Canada",
    "quadrant": "calgary-nw",
    "lat": 51.172524,
    "lng": -114.301728,
    "last_updated": "2020-12-28T10:31:46.489755"
  },
  {
    "address": "4447 Greenview Dr NE, Calgary, AB T2E 5R3, Canada",
    "quadrant": "calgary-ne",
    "lat": 51.091753,
    "lng": -114.0576779,
    "last_updated": "2020-12-28T10:31:46.489755"
  },
  {
    "address": "63 Ventura Way NE, Calgary, AB T2E 8E8, Canada",
    "quadrant": "calgary-ne",
    "lat": 51.0717072,
    "lng": -114.0118593,
    "last_updated": "2020-12-28T10:31:46.489755"
  },
  {
    "address": "155 Templevale Pl NE, Calgary, AB T1Y 4V6, Canada",
    "quadrant": "calgary-ne",
    "lat": 51.0908904,
    "lng": -113.9427192,
    "last_updated": "2020-12-28T10:31:46.489755"
  },
  {
    "address": "1015 19 St NE, Calgary, AB T2E 4X6, Canada",
    "quadrant": "calgary-ne",
    "lat": 51.0611389,
    "lng": -114.0137069,
    "last_updated": "2020-12-28T10:31:46.489755"
  },
  {
    "address": "6340 Rundlehorn Dr NE, Calgary, AB T1Y 1M7, Canada",
    "quadrant": "calgary-ne",
    "lat": 51.071969,
    "lng": -113.941504,
    "last_updated": "2020-12-28T10:31:46.489755"
  },
  {
    "address": "161 Margate Close NE, Calgary, AB T2A 3E5, Canada",
    "quadrant": "calgary-ne",
    "lat": 51.060142,
    "lng": -113.972224,
    "last_updated": "2020-12-28T10:31:46.489755"
  },
  {
    "address": "5763 Maidstone Crescent NE, Calgary, AB T2A 4C3, Canada",
    "quadrant": "calgary-ne",
    "lat": 51.0588596,
    "lng": -113.9494123,
    "last_updated": "2020-12-28T10:31:46.489755"
  },
  {
    "address": "602 30 Ave NE, Calgary, AB T2E 2E3, Canada",
    "quadrant": "calgary-ne",
    "lat": 51.0783958,
    "lng": -114.050259,
    "last_updated": "2020-12-28T10:31:46.489755"
  },
  {
    "address": "208 Harvest Gold Heights NE, Calgary, AB T3K 4H2, Canada",
    "quadrant": "calgary-ne",
    "lat": 51.14530329999999,
    "lng": -114.0616957,
    "last_updated": "2020-12-28T10:31:46.489755"
  },
  {
    "address": "112 Abingdon Crescent NE, Calgary, AB T2A 6X4, Canada",
    "quadrant": "calgary-ne",
    "lat": 51.0636928,
    "lng": -113.9257013,
    "last_updated": "2020-12-28T10:31:46.489755"
  },
  {
    "address": "236 34 Ave NE, Calgary, AB T2E 2J5, Canada",
    "quadrant": "calgary-ne",
    "lat": 51.0834675,
    "lng": -114.0580073,
    "last_updated": "2020-12-28T10:31:46.489755"
  },
  {
    "address": "29 Harvest Park Mews NE, Calgary, AB T3K 4M9, Canada",
    "quadrant": "calgary-ne",
    "lat": 51.1451395,
    "lng": -114.0555278,
    "last_updated": "2020-12-28T10:31:46.489755"
  },
  {
    "address": "139 Huntwick Way NE, Calgary, AB T2K 4H4, Canada",
    "quadrant": "calgary-ne",
    "lat": 51.1240043,
    "lng": -114.0602803,
    "last_updated": "2020-12-28T10:31:46.489755"
  },
  {
    "address": "107 Huntcroft Pl NE, Calgary, AB T2K 4E6, Canada",
    "quadrant": "calgary-ne",
    "lat": 51.1214981,
    "lng": -114.06859,
    "last_updated": "2020-12-28T10:31:46.489755"
  },
  {
    "address": "4721 Edmonton Trail, Calgary, AB T2E 3V7, Canada",
    "quadrant": "calgary-ne",
    "lat": 51.0947244,
    "lng": -114.0543732,
    "last_updated": "2020-12-28T10:31:46.489755"
  },
  {
    "address": "217 San Fernando Pl NE, Calgary, AB T1Y 7J1, Canada",
    "quadrant": "calgary-ne",
    "lat": 51.0900117,
    "lng": -113.9261782,
    "last_updated": "2020-12-28T10:31:46.489755"
  },
  {
    "address": "138 Coverton Heights NE, Calgary, AB T3K 5B2, Canada",
    "quadrant": "calgary-ne",
    "lat": 51.168279,
    "lng": -114.0379614,
    "last_updated": "2020-12-28T10:31:46.489755"
  },
  {
    "address": "252 San Fernando Pl NE, Calgary, AB T1Y 7J1, Canada",
    "quadrant": "calgary-ne",
    "lat": 51.0898507,
    "lng": -113.924892,
    "last_updated": "2020-12-28T10:31:46.489755"
  },
  {
    "address": "4603 Maryvale Rd NE, Calgary, AB T2A 2T1, Canada",
    "quadrant": "calgary-ne",
    "lat": 51.0569159,
    "lng": -113.9689093,
    "last_updated": "2020-12-28T10:31:46.489755"
  },
  {
    "address": "12105 Coventry Hills Way NE, Calgary, AB T3K 6A7, Canada",
    "quadrant": "calgary-ne",
    "lat": 51.16621,
    "lng": -114.061475,
    "last_updated": "2020-12-28T10:31:46.489755"
  },
  {
    "address": "1101 84 St NE, Calgary, AB T2A, Canada",
    "quadrant": "calgary-ne",
    "lat": 51.0643705,
    "lng": -113.9124124,
    "last_updated": "2020-12-28T10:31:46.489755"
  },
  {
    "address": "206 34 Ave NE, Calgary, AB T2E 2J5, Canada",
    "quadrant": "calgary-ne",
    "lat": 51.0834291,
    "lng": -114.0595221,
    "last_updated": "2020-12-28T10:31:46.489755"
  },
  {
    "address": "74 Shannon Square SW, Calgary, AB T2Y 4K2, Canada",
    "quadrant": "calgary-sw",
    "lat": 50.9124224,
    "lng": -114.0961317,
    "last_updated": "2020-12-28T10:31:46.489755"
  },
  {
    "address": "56 Evermeadow Manor SW, Calgary, AB T2Y 4W8, Canada",
    "quadrant": "calgary-sw",
    "lat": 50.9126834,
    "lng": -114.1201743,
    "last_updated": "2020-12-28T10:31:46.489755"
  },
  {
    "address": "385 Cantrell Dr SW, Calgary, AB T2W 2T2, Canada",
    "quadrant": "calgary-sw",
    "lat": 50.93428189999999,
    "lng": -114.0712032,
    "last_updated": "2020-12-28T10:31:46.489755"
  },
  {
    "address": "55 Westridge Crescent SW, Calgary, AB T3H 5C9, Canada",
    "quadrant": "calgary-sw",
    "lat": 51.0582,
    "lng": -114.196726,
    "last_updated": "2020-12-28T10:31:46.489755"
  },
  {
    "address": "407 Silverado Dr SW, Calgary, AB T2X 0G2, Canada",
    "quadrant": "calgary-sw",
    "lat": 50.8779508,
    "lng": -114.0774922,
    "last_updated": "2020-12-28T10:31:46.489755"
  },
  {
    "address": "510 Everridge Dr SW, Calgary, AB T2Y 5E5, Canada",
    "quadrant": "calgary-sw",
    "lat": 50.9137419,
    "lng": -114.1232254,
    "last_updated": "2020-12-28T10:31:46.489755"
  },
  {
    "address": "3423 62 Ave SW, Calgary, AB T3E 5J4, Canada",
    "quadrant": "calgary-sw",
    "lat": 50.9971021,
    "lng": -114.1342124,
    "last_updated": "2020-12-28T10:31:46.489755"
  },
  {
    "address": "192 Bridleridge Gardens SW, Calgary, AB T2Y 4L4, Canada",
    "quadrant": "calgary-sw",
    "lat": 50.8971948,
    "lng": -114.1103277,
    "last_updated": "2020-12-28T10:31:46.489755"
  },
  {
    "address": "18 Everstone Ct SW, Calgary, AB T2Y 4J6, Canada",
    "quadrant": "calgary-sw",
    "lat": 50.90848399999999,
    "lng": -114.1012489,
    "last_updated": "2020-12-28T10:31:46.489755"
  },
  {
    "address": "199 Canterville Dr SW, Calgary, AB T2W 3X9, Canada",
    "quadrant": "calgary-sw",
    "lat": 50.9406273,
    "lng": -114.0874102,
    "last_updated": "2020-12-28T10:31:46.489755"
  },
  {
    "address": "33 Everglen Crescent SW, Calgary, AB T2Y 0G4, Canada",
    "quadrant": "calgary-sw",
    "lat": 50.9150243,
    "lng": -114.1256486,
    "last_updated": "2020-12-28T10:31:46.489755"
  },
  {
    "address": "2636 28 St SW, Calgary, AB T3E 2J1, Canada",
    "quadrant": "calgary-sw",
    "lat": 51.0303109,
    "lng": -114.1278972,
    "last_updated": "2020-12-28T10:31:46.489755"
  },
  {
    "address": "51 Brookpark Crescent SW, Calgary, AB T2W 2W6, Canada",
    "quadrant": "calgary-sw",
    "lat": 50.957299,
    "lng": -114.1173432,
    "last_updated": "2020-12-28T10:31:46.489755"
  },
  {
    "address": "1191 Everridge Dr SW, Calgary, AB T2Y 4T2, Canada",
    "quadrant": "calgary-sw",
    "lat": 50.9109679,
    "lng": -114.109143,
    "last_updated": "2020-12-28T10:31:46.489755"
  },
  {
    "address": "2128 54 Ave SW, Calgary, AB T3E 1L7, Canada",
    "quadrant": "calgary-sw",
    "lat": 51.0051871,
    "lng": -114.1107206,
    "last_updated": "2020-12-28T10:31:46.489755"
  },
  {
    "address": "98 Crestmont Dr SW, Calgary, AB T3B 5Z6, Canada",
    "quadrant": "calgary-sw",
    "lat": 51.0832783,
    "lng": -114.2634298,
    "last_updated": "2020-12-28T10:31:46.489755"
  },
  {
    "address": "355 Millview Bay SW, Calgary, AB T2Y 3Y1, Canada",
    "quadrant": "calgary-sw",
    "lat": 50.9203699,
    "lng": -114.0974967,
    "last_updated": "2020-12-28T10:31:46.489755"
  },
  {
    "address": "9 Aspen Ridge Close SW, Calgary, AB T3H 5V4, Canada",
    "quadrant": "calgary-sw",
    "lat": 51.0427638,
    "lng": -114.1947446,
    "last_updated": "2020-12-28T10:31:46.489755"
  },
  {
    "address": "718 A 69 Ave SW, Calgary, AB T2V 0P2, Canada",
    "quadrant": "calgary-sw",
    "lat": 50.991649,
    "lng": -114.077559,
    "last_updated": "2020-12-28T10:31:46.489755"
  },
  {
    "address": "169 Springbank Pl SW, Calgary, AB T3H 3S5, Canada",
    "quadrant": "calgary-sw",
    "lat": 51.0187099,
    "lng": -114.2014149,
    "last_updated": "2020-12-28T10:31:46.489755"
  },
  {
    "address": "1708 29 St SW, Calgary, AB T3C 1M4, Canada",
    "quadrant": "calgary-sw",
    "lat": 51.03938609999999,
    "lng": -114.129155,
    "last_updated": "2020-12-28T10:31:46.489755"
  },
  {
    "address": "6020 Lakeview Dr SW, Calgary, AB T3E 5S8, Canada",
    "quadrant": "calgary-sw",
    "lat": 51.0001559,
    "lng": -114.1326721,
    "last_updated": "2020-12-28T10:31:46.489755"
  },
  {
    "address": "24 Everbrook Dr SW, Calgary, AB T2Y 0A6, Canada",
    "quadrant": "calgary-sw",
    "lat": 50.9183369,
    "lng": -114.1111749,
    "last_updated": "2020-12-28T10:31:46.489755"
  },
  {
    "address": "80 Evergreen Close SW, Calgary, AB T2Y 2X8, Canada",
    "quadrant": "calgary-sw",
    "lat": 50.926198,
    "lng": -114.0978958,
    "last_updated": "2020-12-28T10:31:46.489755"
  },
  {
    "address": "60 Hanover Rd SW, Calgary, AB T2V 3J4, Canada",
    "quadrant": "calgary-sw",
    "lat": 50.9710669,
    "lng": -114.0890781,
    "last_updated": "2020-12-28T10:31:46.489755"
  },
  {
    "address": "3436 33 St SW, Calgary, AB T3E 2V2, Canada",
    "quadrant": "calgary-sw",
    "lat": 51.0239552,
    "lng": -114.1352157,
    "last_updated": "2020-12-28T10:31:46.489755"
  },
  {
    "address": "30 Silverado Ridge Link SW, Calgary, AB T2X 0J8, Canada",
    "quadrant": "calgary-sw",
    "lat": 50.8874972,
    "lng": -114.0857753,
    "last_updated": "2020-12-28T10:31:46.489755"
  },
  {
    "address": "3 Bridlerange Cir SW, Calgary, AB T2Y 5H5, Canada",
    "quadrant": "calgary-sw",
    "lat": 50.9021553,
    "lng": -114.1132507,
    "last_updated": "2020-12-28T10:31:46.489755"
  },
  {
    "address": "6730 Legare Dr SW, Calgary, AB T3E 6H2, Canada",
    "quadrant": "calgary-sw",
    "lat": 50.9931254,
    "lng": -114.1261172,
    "last_updated": "2020-12-28T10:31:46.489755"
  },
  {
    "address": "731 Everridge Dr SW, Calgary, AB T2Y 5E7, Canada",
    "quadrant": "calgary-sw",
    "lat": 50.9115871,
    "lng": -114.1227635,
    "last_updated": "2020-12-28T10:31:46.489755"
  },
  {
    "address": "70 Millrise Blvd SW, Calgary, AB T2Y 3E1, Canada",
    "quadrant": "calgary-sw",
    "lat": 50.9182299,
    "lng": -114.074518,
    "last_updated": "2020-12-28T10:31:46.489755"
  },
  {
    "address": "11 Bridlewood Close SW, Calgary, AB T2Y 3N2, Canada",
    "quadrant": "calgary-sw",
    "lat": 50.9044482,
    "lng": -114.1051475,
    "last_updated": "2020-12-28T10:31:46.489755"
  },
  {
    "address": "804 3 Ave SW, Calgary, AB T2P 0G9, Canada",
    "quadrant": "calgary-sw",
    "lat": 51.0510641,
    "lng": -114.0794273,
    "last_updated": "2020-12-28T10:31:46.489755"
  },
  {
    "address": "15003 Deer Run Dr SE, Calgary, AB T2J 5M6, Canada",
    "quadrant": "calgary-se",
    "lat": 50.917797,
    "lng": -114.0048511,
    "last_updated": "2020-12-28T10:31:46.489755"
  },
  {
    "address": "113 Chapalina Close SE, Calgary, AB T2X 0A7, Canada",
    "quadrant": "calgary-se",
    "lat": 50.88131569999999,
    "lng": -114.0457647,
    "last_updated": "2020-12-28T10:31:46.489755"
  },
  {
    "address": "34 Brightoncrest Heights SE, Calgary, AB T2Z 0X4, Canada",
    "quadrant": "calgary-se",
    "lat": 50.92214689999999,
    "lng": -113.9446806,
    "last_updated": "2020-12-28T10:31:46.489755"
  },
  {
    "address": "220 Douglasbank Pl SE, Calgary, AB T2Z 2C2, Canada",
    "quadrant": "calgary-se",
    "lat": 50.94425210000001,
    "lng": -114.0087064,
    "last_updated": "2020-12-28T10:31:46.489755"
  },
  {
    "address": "72 Deer Ridge Way SE, Calgary, AB T2J 5Y6, Canada",
    "quadrant": "calgary-se",
    "lat": 50.9279348,
    "lng": -114.0237275,
    "last_updated": "2020-12-28T10:31:46.489755"
  },
  {
    "address": "6427 20 St SE, Calgary, AB T2C 0P3, Canada",
    "quadrant": "calgary-se",
    "lat": 50.9959546,
    "lng": -114.012496,
    "last_updated": "2020-12-28T10:31:46.489755"
  },
  {
    "address": "131 Erin Park Close SE, Calgary, AB T2B 2V6, Canada",
    "quadrant": "calgary-se",
    "lat": 51.0207498,
    "lng": -113.9706168,
    "last_updated": "2020-12-28T10:31:46.489755"
  },
  {
    "address": "427 Parkvalley Dr SE, Calgary, AB T2J 4V3, Canada",
    "quadrant": "calgary-se",
    "lat": 50.9153245,
    "lng": -114.0285316,
    "last_updated": "2020-12-28T10:31:46.489755"
  },
  {
    "address": "1987 New Brighton Dr SE, Calgary, AB T2Z 4J4, Canada",
    "quadrant": "calgary-se",
    "lat": 50.916837,
    "lng": -113.954286,
    "last_updated": "2020-12-28T10:31:46.489755"
  },
  {
    "address": "455 Astoria Crescent SE, Calgary, AB T2J 0Y6, Canada",
    "quadrant": "calgary-se",
    "lat": 50.9660266,
    "lng": -114.0563767,
    "last_updated": "2020-12-28T10:31:46.489755"
  },
  {
    "address": "87 Auburn Glen Way SE, Calgary, AB T3M 0K9, Canada",
    "quadrant": "calgary-se",
    "lat": 50.8963,
    "lng": -113.9575044,
    "last_updated": "2020-12-28T10:31:46.489755"
  },
  {
    "address": "16 Mckerrell Close SE, Calgary, AB T2Z 1M7, Canada",
    "quadrant": "calgary-se",
    "lat": 50.9019115,
    "lng": -113.9821775,
    "last_updated": "2020-12-28T10:31:46.489755"
  },
  {
    "address": "12 Douglas Ridge Close SE, Calgary, AB T2Z 2M2, Canada",
    "quadrant": "calgary-se",
    "lat": 50.94125039999999,
    "lng": -113.9804667,
    "last_updated": "2020-12-28T10:31:46.489755"
  },
  {
    "address": "80 Copperfield Rise SE, Calgary, AB T2Z 4V1, Canada",
    "quadrant": "calgary-se",
    "lat": 50.9136462,
    "lng": -113.9412291,
    "last_updated": "2020-12-28T10:31:46.489755"
  },
  {
    "address": "908 37 St SE, Calgary, AB T2A 1E1, Canada",
    "quadrant": "calgary-se",
    "lat": 51.0448647,
    "lng": -113.9798309,
    "last_updated": "2020-12-28T10:31:46.489755"
  },
  {
    "address": "185 Chapala Dr SE, Calgary, AB T2X 3S9, Canada",
    "quadrant": "calgary-se",
    "lat": 50.8795539,
    "lng": -114.0314201,
    "last_updated": "2020-12-28T10:31:46.489755"
  },
  {
    "address": "133 Midridge Pl SE, Calgary, AB T2X 1E4, Canada",
    "quadrant": "calgary-se",
    "lat": 50.9208321,
    "lng": -114.0588589,
    "last_updated": "2020-12-28T10:31:46.489755"
  },
  {
    "address": "36 Auburn Meadows Green SE, Calgary, AB T3M 0T5, Canada",
    "quadrant": "calgary-se",
    "lat": 50.89731519999999,
    "lng": -113.9448953,
    "last_updated": "2020-12-28T10:31:46.489755"
  },
  {
    "address": "255 Parkglen Crescent SE, Calgary, AB T2J 4M4, Canada",
    "quadrant": "calgary-se",
    "lat": 50.9202507,
    "lng": -114.0283064,
    "last_updated": "2020-12-28T10:31:46.489755"
  },
  {
    "address": "215 Deercliff Rd SE, Calgary, AB T2J 5K3, Canada",
    "quadrant": "calgary-se",
    "lat": 50.9316738,
    "lng": -114.0160732,
    "last_updated": "2020-12-28T10:31:46.489755"
  },
  {
    "address": "111 Parkvalley Dr SE, Calgary, AB T2J 4V1, Canada",
    "quadrant": "calgary-se",
    "lat": 50.91903199999999,
    "lng": -114.026671,
    "last_updated": "2020-12-28T10:31:46.489755"
  },
  {
    "address": "199 Dovely Crescent SE, Calgary, AB T2B 2K9, Canada",
    "quadrant": "calgary-se",
    "lat": 51.0204923,
    "lng": -113.9966344,
    "last_updated": "2020-12-28T10:31:46.489755"
  },
  {
    "address": "928 Lake Ontario Dr SE, Calgary, AB T2J 3K2, Canada",
    "quadrant": "calgary-se",
    "lat": 50.93094319999999,
    "lng": -114.0368712,
    "last_updated": "2020-12-28T10:31:46.489755"
  },
  {
    "address": "24 Deerbrook Bay SE, Calgary, AB T2J 5Z8, Canada",
    "quadrant": "calgary-se",
    "lat": 50.9208767,
    "lng": -113.9997009,
    "last_updated": "2020-12-28T10:31:46.489755"
  },
  {
    "address": "2812 46 St SE, Calgary, AB T2B 2N8, Canada",
    "quadrant": "calgary-se",
    "lat": 51.0294857,
    "lng": -113.9666158,
    "last_updated": "2020-12-28T10:31:46.489755"
  },
  {
    "address": "932 Lake Ontario Dr SE, Calgary, AB T2J 3K2, Canada",
    "quadrant": "calgary-se",
    "lat": 50.9310063,
    "lng": -114.036582,
    "last_updated": "2020-12-28T10:31:46.489755"
  },
  {
    "address": "60 Riverview Mews SE, Calgary, AB T2C 3Z8, Canada",
    "quadrant": "calgary-se",
    "lat": 50.9714299,
    "lng": -114.0227057,
    "last_updated": "2020-12-28T10:31:46.489755"
  },
  {
    "address": "586 Cranston Dr SE, Calgary, AB T3M, Canada",
    "quadrant": "calgary-se",
    "lat": 50.8830523,
    "lng": -113.9747163,
    "last_updated": "2020-12-28T10:31:46.489755"
  },
  {
    "address": "96 Chaparral Dr, Calgary, AB T2X 3J7, Canada",
    "quadrant": "calgary-se",
    "lat": 50.885783,
    "lng": -114.030613,
    "last_updated": "2020-12-28T10:31:46.489755"
  },
  {
    "address": "248 Prestwick Estate Way, Calgary, AB T2Z 4H2, Canada",
    "quadrant": "calgary-se",
    "lat": 50.92263579999999,
    "lng": -113.970455,
    "last_updated": "2020-12-28T10:31:46.489755"
  },
  {
    "address": "308 Cramond Close SE, Calgary, AB T3M 1B9, Canada",
    "quadrant": "calgary-se",
    "lat": 50.894338,
    "lng": -113.979879,
    "last_updated": "2020-12-28T10:31:46.489755"
  },
  {
    "address": "88 Cranfield Cir SE, Calgary, AB T3M 1H1, Canada",
    "quadrant": "calgary-se",
    "lat": 50.887698,
    "lng": -113.978863,
    "last_updated": "2020-12-28T10:31:46.489755"
  },
  {
    "address": "267 Auburn Bay Blvd SE, Calgary, AB T3M 0C5, Canada",
    "quadrant": "calgary-se",
    "lat": 50.8861631,
    "lng": -113.9655514,
    "last_updated": "2020-12-28T10:31:46.489755"
  },
  {
    "address": "1424 Lake Ontario Dr SE, Calgary, AB T2J 3G6, Canada",
    "quadrant": "calgary-se",
    "lat": 50.9404177,
    "lng": -114.0330228,
    "last_updated": "2020-12-28T10:31:46.489755"
  },
  {
    "address": "325 Auburn Crest Way SE, Calgary, AB T3M, Canada",
    "quadrant": "calgary-se",
    "lat": 50.8876143,
    "lng": -113.9440613,
    "last_updated": "2020-12-28T10:31:46.489755"
  },
  {
    "address": "77 Auburn Bay Green SE, Calgary, AB T3M 0A3, Canada",
    "quadrant": "calgary-se",
    "lat": 50.8847585,
    "lng": -113.9636719,
    "last_updated": "2020-12-28T10:31:46.489755"
  },
  {
    "address": "222 Copperpond Blvd SE, Calgary, AB T2Z 0X3, Canada",
    "quadrant": "calgary-se",
    "lat": 50.9236817,
    "lng": -113.9301791,
    "last_updated": "2020-12-28T10:31:46.489755"
  },
  {
    "address": "3197 Douglasdale Blvd SE, Calgary, AB T2Z 3A1, Canada",
    "quadrant": "calgary-se",
    "lat": 50.93762299999999,
    "lng": -113.9814652,
    "last_updated": "2020-12-28T10:31:46.489755"
  },
  {
    "address": "50 Chaparral Ridge Rise SE, Calgary, AB T2X 3X9, Canada",
    "quadrant": "calgary-se",
    "lat": 50.8843803,
    "lng": -114.0222398,
    "last_updated": "2020-12-28T10:31:46.489755"
  },
  {
    "address": "110 Hillcrest Cl SW, Airdrie, AB T4B 0K2, Canada",
    "quadrant": "surroundings",
    "lat": 51.2499913,
    "lng": -114.0149971,
    "last_updated": "2020-12-28T10:31:46.489755"
  },
  {
    "address": "837 W Chestermere Dr, Chestermere, AB T1X 1E6, Canada",
    "quadrant": "surroundings",
    "lat": 51.0279286,
    "lng": -113.8264184,
    "last_updated": "2020-12-28T10:31:46.489755"
  },
  {
    "address": "221 2 Ave NE, Airdrie, AB T4B 0R6, Canada",
    "quadrant": "surroundings",
    "lat": 51.293344,
    "lng": -114.010126,
    "last_updated": "2020-12-28T10:31:46.489755"
  },
  {
    "address": "203 Church Ranches Way, Calgary, AB T3R 1B1, Canada",
    "quadrant": "surroundings",
    "lat": 51.171375,
    "lng": -114.271236,
    "last_updated": "2020-12-28T10:31:46.489755"
  },
  {
    "address": "317 W Creek Blvd, Chestermere, AB T1X 0A6, Canada",
    "quadrant": "surroundings",
    "lat": 51.028585,
    "lng": -113.8349784,
    "last_updated": "2020-12-28T10:31:46.489755"
  },
  {
    "address": "397 Windermere Dr, Chestermere, AB T1X 0C6, Canada",
    "quadrant": "surroundings",
    "lat": 51.0494984,
    "lng": -113.8412531,
    "last_updated": "2020-12-28T10:31:46.489755"
  },
  {
    "address": "74 Besse Ave, Langdon, AB T0J 1X0, Canada",
    "quadrant": "surroundings",
    "lat": 50.9781324,
    "lng": -113.6896397,
    "last_updated": "2020-12-28T10:31:46.489755"
  },
  {
    "address": "83 Willow Creek Crossing, Calgary, AB T3R 0K3, Canada",
    "quadrant": "surroundings",
    "lat": 51.172524,
    "lng": -114.301728,
    "last_updated": "2020-12-28T10:31:46.489755"
  }
]